[{"name": "Taco Bell", "brand_id": "513fbc1283aa2dc80c000020", "address": "4101 Campus Drive, Irvine, 92612", "phone": "+19497258348", "website": "https://www.tacobell.com/", "lat_lon": [{"lat": 33.65095901489258, "lon": -117.8409652709961}]}, {"name": "Del Taco", "brand_id": "513fbc1283aa2dc80c0000b4", "address": "3050 Main St, Irvine, 92614", "phone": "", "website": "http://www.deltaco.com/", "lat_lon": [{"lat": 33.678409576416016, "lon": -117.8345947265625}]}, {"name": "Taco Bell", "brand_id": "513fbc1283aa2dc80c000020", "address": "4101 CAMPUS DR, Irvine, 92612", "phone": "+19497258322", "website": "https://www.tacobell.com/", "lat_lon": [{"lat": 33.647926330566406, "lon": -117.8372802734375}]}, {"name": "Taco Bell", "brand_id": "513fbc1283aa2dc80c000020", "address": "17901 Von Karman Ave, Irvine, 92614", "phone": "+19498634500", "website": "https://www.tacobell.com/", "lat_lon": [{"lat": 33.68659591674805, "lon": -117.84396362304688}]}, {"name": "Del Taco", "brand_id": "513fbc1283aa2dc80c0000b4", "address": "2701 S GRAND AVE, Santa Ana, 92705", "phone": "+17145406157", "website": "http://www.deltaco.com/", "lat_lon": [{"lat": 33.709999084472656, "lon": -117.85029602050781}]}, {"name": "Del Taco", "brand_id": "513fbc1283aa2dc80c0000b4", "address": "2900 S MAIN ST, Santa Ana, 92707", "phone": "+17149790037", "website": "http://www.deltaco.com/", "lat_lon": [{"lat": 33.70859146118164, "lon": -117.86802673339844}]}, {"name": "Taco Bell", "brand_id": "513fbc1283aa2dc80c000020", "address": "401 Newport Center Dr Ste A107, Newport Beach, 92660", "phone": "+19497060303", "website": "https://www.tacobell.com/", "lat_lon": [{"lat": 33.61608123779297, "lon": -117.87474822998047}]}, {"name": "Taco Bell", "brand_id": "513fbc1283aa2dc80c000020", "address": "2246 S GRAND AVE, Santa Ana, 92705", "phone": "+17145574844", "website": "https://www.tacobell.com/", "lat_lon": [{"lat": 33.716400146484375, "lon": -117.85060119628906}]}, {"name": "Del Taco", "brand_id": "513fbc1283aa2dc80c0000b4", "address": "2841 W WARNER AVE, Santa Ana, 92704", "phone": "+17149570900", "website": "http://www.deltaco.com/", "lat_lon": [{"lat": 33.71515655517578, "lon": -117.9078140258789}]}, {"name": "Taco Bell", "brand_id": "513fbc1283aa2dc80c000020", "address": "1400 W COAST HWY, Newport Beach, 92663", "phone": "+19496468656", "website": "https://www.tacobell.com/", "lat_lon": [{"lat": 33.619998931884766, "lon": -117.91600036621094}]}]